[
  {
    "name": "toronto",
    "slug": "toronto",
    "code": "YYZ",
    "lat": 43.6532,
    "lon": -79.3832,
    "timezone": "America/Toronto",
    "continent": "north america",
    "country": "canada"
  },
  {
    "name": "vancouver",
    "slug": "vancouver",
    "code": "YVR",
    "lat": 49.2827,
    "lon": -123.1207,
    "timezone": "America/Vancouver",
    "continent": "north america",
    "country": "canada"
  },
  {
    "name": "montreal",
    "slug": "montreal",
    "code": "YUL",
    "lat": 45.5017,
    "lon": -73.5673,
    "timezone": "America/Toronto",
    "continent": "north america",
    "country": "canada"
  },
  {
    "name": "new york",
    "slug": "new-york",
    "code": "JFK",
    "lat": 40.7128,
    "lon": -74.0060,
    "timezone": "America/New_York",
    "continent": "north america",
    "country": "usa"
  },
  {
    "name": "london",
    "slug": "london",
    "code": "LHR",
    "lat": 51.5074,
    "lon": -0.1278,
    "timezone": "Europe/London",
    "continent": "europe",
    "country": "uk"
  },
  {
    "name": "tokyo",
    "slug": "tokyo",
    "code": "NRT",
    "lat": 35.6762,
    "lon": 139.6503,
    "timezone": "Asia/Tokyo",
    "continent": "asia",
    "country": "japan"
  }
]